{
"type": "FeatureCollection",
"name": "intersected_shapefile",
"crs": { "type": "name", "properties": { "name": "urn:ogc:def:crs:OGC:1.3:CRS84" } },
"features": [
{ "type": "Feature", "properties": { "OBJECTID": 14043, "ID": "0030077338", "NAME": "ENCOMPASS HEALTH REHABILITATION HOSPITAL OF HUMBLE", "ADDRESS": "19002 MCKAY DRIVE", "CITY": "HUMBLE", "STATE": "TX", "ZIP": "77338", "ZIP4": "NOT AVAILABLE", "TELEPHONE": "(281) 446-6148", "TYPE": "REHABILITATION", "STATUS": "OPEN", "POPULATION": 90, "COUNTY": "HARRIS", "COUNTYFIPS": "48201", "COUNTRY": "USA", "LATITUDE": 29.993735220000076, "LONGITUDE": -95.2773293, "NAICS_CODE": "622310", "NAICS_DESC": "REHABILITATION HOSPITALS (EXCEPT ALCOHOLISM, DRUG ADDICTION)", "SOURCE": "https://www.hhs.texas.gov/providers/health-care-facilities-regulation", "SOURCEDATE": "2024-03-08T00:00:00", "VAL_METHOD": "IMAGERY", "VAL_DATE": "2014-03-12T00:00:00", "WEBSITE": "http://www.healthsouthhumble.com/", "STATE_ID": "100245", "ALT_NAME": "NOT AVAILABLE", "ST_FIPS": "48", "OWNER": "PROPRIETARY", "TTL_STAFF": -999, "BEDS": 90, "TRAUMA": "NOT AVAILABLE", "HELIPAD": "Y", "ZCTA5CE10": "77338", "Total": 363, "X": 65799.070515500003, "Y": -1167696.9343900001 }, "geometry": { "type": "Point", "coordinates": [ -95.277329299999593, 29.993735220000108 ] } },
{ "type": "Feature", "properties": { "OBJECTID": 14087, "ID": "0033177339", "NAME": "HCA HOUSTON HEALTHCARE KINGWOOD", "ADDRESS": "22999 US HIGHWAY 59", "CITY": "KINGWOOD", "STATE": "TX", "ZIP": "77339", "ZIP4": "NOT AVAILABLE", "TELEPHONE": "(281) 348-8001", "TYPE": "GENERAL ACUTE CARE", "STATUS": "OPEN", "POPULATION": 457, "COUNTY": "MONTGOMERY", "COUNTYFIPS": "48339", "COUNTRY": "USA", "LATITUDE": 30.050068480000046, "LONGITUDE": -95.255075579999982, "NAICS_CODE": "622110", "NAICS_DESC": "GENERAL MEDICAL AND SURGICAL HOSPITALS", "SOURCE": "https://www.hhs.texas.gov/providers/health-care-facilities-regulation", "SOURCEDATE": "2024-03-08T00:00:00", "VAL_METHOD": "IMAGERY/OTHER", "VAL_DATE": "2014-02-10T00:00:00", "WEBSITE": "NOT AVAILABLE", "STATE_ID": "675", "ALT_NAME": "NOT AVAILABLE", "ST_FIPS": "48", "OWNER": "PROPRIETARY", "TTL_STAFF": -999, "BEDS": 457, "TRAUMA": "LEVEL III", "HELIPAD": "Y", "ZCTA5CE10": "77338", "Total": 363, "X": 65799.070515500003, "Y": -1167696.9343900001 }, "geometry": { "type": "Point", "coordinates": [ -95.25507558000011, 30.050068480000036 ] } },
{ "type": "Feature", "properties": { "OBJECTID": 14136, "ID": "0196784219", "NAME": "KINGWOOD EMERGENCY HOSPITAL", "ADDRESS": "23330 HIGHWAY 59 N", "CITY": "KINGWOOD", "STATE": "TX", "ZIP": "77339", "ZIP4": "NOT AVAILABLE", "TELEPHONE": "(832) 777-6165", "TYPE": "SPECIAL", "STATUS": "OPEN", "POPULATION": 6, "COUNTY": "MONTGOMERY", "COUNTYFIPS": "48339", "COUNTRY": "USA", "LATITUDE": 30.0545024, "LONGITUDE": -95.2499181, "NAICS_CODE": "622110", "NAICS_DESC": "GENERAL MEDICAL AND SURGICAL HOSPITALS", "SOURCE": "https://www.hhs.texas.gov/providers/health-care-facilities-regulation", "SOURCEDATE": "2024-03-08T00:00:00", "VAL_METHOD": "IMAGERY/OTHER", "VAL_DATE": "2022-04-01T00:00:00", "WEBSITE": "NOT AVAILABLE", "STATE_ID": "100416", "ALT_NAME": "NOT AVAILABLE", "ST_FIPS": "48", "OWNER": "PROPRIETARY", "TTL_STAFF": -999, "BEDS": 6, "TRAUMA": "NOT AVAILABLE", "HELIPAD": "N", "ZCTA5CE10": "77338", "Total": 363, "X": 65799.070515500003, "Y": -1167696.9343900001 }, "geometry": { "type": "Point", "coordinates": [ -95.249918099999874, 30.054502400000079 ] } },
{ "type": "Feature", "properties": { "OBJECTID": 14189, "ID": "0029877091", "NAME": "MEMORIAL HERMANN NORTHEAST HOSPITAL", "ADDRESS": "18951 MEMORIAL NORTH", "CITY": "HUMBLE", "STATE": "TX", "ZIP": "77338", "ZIP4": "NOT AVAILABLE", "TELEPHONE": "(281) 540-7700", "TYPE": "GENERAL ACUTE CARE", "STATUS": "OPEN", "POPULATION": 242, "COUNTY": "HARRIS", "COUNTYFIPS": "48201", "COUNTRY": "USA", "LATITUDE": 29.995512040000051, "LONGITUDE": -95.276128889999939, "NAICS_CODE": "622110", "NAICS_DESC": "GENERAL MEDICAL AND SURGICAL HOSPITALS", "SOURCE": "https://www.hhs.texas.gov/providers/health-care-facilities-regulation", "SOURCEDATE": "2024-03-08T00:00:00", "VAL_METHOD": "IMAGERY", "VAL_DATE": "2014-03-12T00:00:00", "WEBSITE": "http://www.memorialhermann.org/locations/northeast/", "STATE_ID": "8471", "ALT_NAME": "NOT AVAILABLE", "ST_FIPS": "48", "OWNER": "NON-PROFIT", "TTL_STAFF": -999, "BEDS": 242, "TRAUMA": "NOT AVAILABLE", "HELIPAD": "Y", "ZCTA5CE10": "77338", "Total": 363, "X": 65799.070515500003, "Y": -1167696.9343900001 }, "geometry": { "type": "Point", "coordinates": [ -95.276128889999981, 29.99551204000003 ] } },
{ "type": "Feature", "properties": { "OBJECTID": 14195, "ID": "0032877339", "NAME": "MEMORIAL HERMANN SPECIALTY HOSPITAL KINGWOOD LLC", "ADDRESS": "300 KINGWOOD MEDICAL DRIVE", "CITY": "KINGWOOD", "STATE": "TX", "ZIP": "77339", "ZIP4": "NOT AVAILABLE", "TELEPHONE": "(281) 312-4000", "TYPE": "GENERAL ACUTE CARE", "STATUS": "OPEN", "POPULATION": 10, "COUNTY": "MONTGOMERY", "COUNTYFIPS": "48339", "COUNTRY": "USA", "LATITUDE": 30.047943840000073, "LONGITUDE": -95.259085909999953, "NAICS_CODE": "622110", "NAICS_DESC": "GENERAL MEDICAL AND SURGICAL HOSPITALS", "SOURCE": "https://www.hhs.texas.gov/providers/health-care-facilities-regulation", "SOURCEDATE": "2024-03-08T00:00:00", "VAL_METHOD": "IMAGERY/OTHER", "VAL_DATE": "2014-02-04T00:00:00", "WEBSITE": "http://www.memorialhermannkingwood.com", "STATE_ID": "8591", "ALT_NAME": "NOT AVAILABLE", "ST_FIPS": "48", "OWNER": "PROPRIETARY", "TTL_STAFF": -999, "BEDS": 10, "TRAUMA": "NOT AVAILABLE", "HELIPAD": "N", "ZCTA5CE10": "77338", "Total": 363, "X": 65799.070515500003, "Y": -1167696.9343900001 }, "geometry": { "type": "Point", "coordinates": [ -95.259085909999968, 30.047943840000059 ] } },
{ "type": "Feature", "properties": { "OBJECTID": 14265, "ID": "0138577338", "NAME": "PAM REHABILITATION HOSPITAL OF HUMBLE", "ADDRESS": "18839 MCKAY BLVD", "CITY": "HUMBLE", "STATE": "TX", "ZIP": "77338", "ZIP4": "NOT AVAILABLE", "TELEPHONE": "(281) 964-6600", "TYPE": "REHABILITATION", "STATUS": "OPEN", "POPULATION": 46, "COUNTY": "HARRIS", "COUNTYFIPS": "48201", "COUNTRY": "USA", "LATITUDE": 29.9920682000001, "LONGITUDE": -95.279015, "NAICS_CODE": "622310", "NAICS_DESC": "REHABILITATION HOSPITALS (EXCEPT ALCOHOLISM, DRUG ADDICTION)", "SOURCE": "https://www.hhs.texas.gov/providers/health-care-facilities-regulation", "SOURCEDATE": "2024-03-08T00:00:00", "VAL_METHOD": "IMAGERY/OTHER", "VAL_DATE": "2022-04-01T00:00:00", "WEBSITE": "NOT AVAILABLE", "STATE_ID": "100301", "ALT_NAME": "NOT AVAILABLE", "ST_FIPS": "48", "OWNER": "PROPRIETARY", "TTL_STAFF": -999, "BEDS": 46, "TRAUMA": "NOT AVAILABLE", "HELIPAD": "N", "ZCTA5CE10": "77338", "Total": 363, "X": 65799.070515500003, "Y": -1167696.9343900001 }, "geometry": { "type": "Point", "coordinates": [ -95.279015000000228, 29.992068200000059 ] } },
{ "type": "Feature", "properties": { "OBJECTID": 14311, "ID": "0030177338", "NAME": "SE TEXAS ER AND HOSPITAL", "ADDRESS": "19211 MCKAY BLVD", "CITY": "HUMBLE", "STATE": "TX", "ZIP": "77338", "ZIP4": "NOT AVAILABLE", "TELEPHONE": "(281) 883-5500", "TYPE": "SPECIAL", "STATUS": "OPEN", "POPULATION": 44, "COUNTY": "HARRIS", "COUNTYFIPS": "48201", "COUNTRY": "USA", "LATITUDE": 29.998675470000023, "LONGITUDE": -95.276222659999974, "NAICS_CODE": "622310", "NAICS_DESC": "SPECIALTY (EXCEPT PSYCHIATRIC AND SUBSTANCE ABUSE) HOSPITALS", "SOURCE": "https://www.hhs.texas.gov/providers/health-care-facilities-regulation", "SOURCEDATE": "2024-03-08T00:00:00", "VAL_METHOD": "IMAGERY/OTHER", "VAL_DATE": "2014-02-10T00:00:00", "WEBSITE": "NOT AVAILABLE", "STATE_ID": "100004", "ALT_NAME": "NOT AVAILABLE", "ST_FIPS": "48", "OWNER": "PROPRIETARY", "TTL_STAFF": -999, "BEDS": 44, "TRAUMA": "NOT AVAILABLE", "HELIPAD": "N", "ZCTA5CE10": "77338", "Total": 363, "X": 65799.070515500003, "Y": -1167696.9343900001 }, "geometry": { "type": "Point", "coordinates": [ -95.276222660000414, 29.998675470000055 ] } },
{ "type": "Feature", "properties": { "OBJECTID": 14422, "ID": "0030277338", "NAME": "TOWNSEN MEMORIAL HOSPITAL", "ADDRESS": "1475 FM 1960 BYPASS E", "CITY": "HUMBLE", "STATE": "TX", "ZIP": "77338", "ZIP4": "NOT AVAILABLE", "TELEPHONE": "(281) 369-9001", "TYPE": "GENERAL ACUTE CARE", "STATUS": "OPEN", "POPULATION": 5, "COUNTY": "HARRIS", "COUNTYFIPS": "48201", "COUNTRY": "USA", "LATITUDE": 30.004777130000036, "LONGITUDE": -95.2524783, "NAICS_CODE": "622110", "NAICS_DESC": "GENERAL MEDICAL AND SURGICAL HOSPITALS", "SOURCE": "https://www.hhs.texas.gov/providers/health-care-facilities-regulation", "SOURCEDATE": "2024-03-08T00:00:00", "VAL_METHOD": "IMAGERY/OTHER", "VAL_DATE": "2014-02-04T00:00:00", "WEBSITE": "NOT AVAILABLE", "STATE_ID": "100396", "ALT_NAME": "NOT AVAILABLE", "ST_FIPS": "48", "OWNER": "PROPRIETARY", "TTL_STAFF": -999, "BEDS": 5, "TRAUMA": "NOT AVAILABLE", "HELIPAD": "N", "ZCTA5CE10": "77338", "Total": 363, "X": 65799.070515500003, "Y": -1167696.9343900001 }, "geometry": { "type": "Point", "coordinates": [ -95.252478299999623, 30.00477713000004 ] } },
{ "type": "Feature", "properties": { "OBJECTID": 14505, "ID": "0032677339", "NAME": "KINGWOOD PINES HOSPITAL", "ADDRESS": "2001 LADBROOK DRIVE", "CITY": "KINGWOOD", "STATE": "TX", "ZIP": "77339", "ZIP4": "NOT AVAILABLE", "TELEPHONE": "(281) 404-1001", "TYPE": "PSYCHIATRIC", "STATUS": "OPEN", "POPULATION": 116, "COUNTY": "HARRIS", "COUNTYFIPS": "48201", "COUNTRY": "USA", "LATITUDE": 30.044497620000072, "LONGITUDE": -95.229984139999942, "NAICS_CODE": "622210", "NAICS_DESC": "PSYCHIATRIC AND SUBSTANCE ABUSE HOSPITALS", "SOURCE": "https://www.hhs.texas.gov/providers/health-care-facilities-regulation", "SOURCEDATE": "2024-03-08T00:00:00", "VAL_METHOD": "IMAGERY", "VAL_DATE": "2014-02-10T00:00:00", "WEBSITE": "http://www.kingwoodpines.com", "STATE_ID": "8186", "ALT_NAME": "NOT AVAILABLE", "ST_FIPS": "48", "OWNER": "PROPRIETARY", "TTL_STAFF": -999, "BEDS": 116, "TRAUMA": "NOT AVAILABLE", "HELIPAD": "N", "ZCTA5CE10": "77338", "Total": 363, "X": 65799.070515500003, "Y": -1167696.9343900001 }, "geometry": { "type": "Point", "coordinates": [ -95.229984139999843, 30.044497620000108 ] } },
{ "type": "Feature", "properties": { "OBJECTID": 16160, "ID": "0196785090", "NAME": "DEERBROOK EMERGENCY HOSPITAL", "ADDRESS": "8901 FM 1960 BYPASS RD W SUITE 105", "CITY": "HUMBLE", "STATE": "TX", "ZIP": "77338", "ZIP4": "NOT AVAILABLE", "TELEPHONE": "(281) 964-2900", "TYPE": "GENERAL ACUTE CARE", "STATUS": "OPEN", "POPULATION": 4, "COUNTY": "HARRIS", "COUNTYFIPS": "48201", "COUNTRY": "USA", "LATITUDE": 30.006491732000029, "LONGITUDE": -95.289676770999975, "NAICS_CODE": "622110", "NAICS_DESC": "GENERAL MEDICAL AND SURGICAL HOSPITALS", "SOURCE": "https://www.hhs.texas.gov/providers/health-care-facilities-regulation", "SOURCEDATE": "2024-03-08T00:00:00", "VAL_METHOD": "IMAGERY/OTHER", "VAL_DATE": "2024-05-22T00:00:00", "WEBSITE": "NOT AVAILABLE", "STATE_ID": "100332", "ALT_NAME": "NOT AVAILABLE", "ST_FIPS": "48", "OWNER": "NOT AVAILABLE", "TTL_STAFF": -999, "BEDS": 4, "TRAUMA": "NOT AVAILABLE", "HELIPAD": "N", "ZCTA5CE10": "77338", "Total": 363, "X": 65799.070515500003, "Y": -1167696.9343900001 }, "geometry": { "type": "Point", "coordinates": [ -95.289676770999563, 30.006491732 ] } }
]
}
